Name,Area,Contact,Latitude,Longitude
Apollo Hospital,Gachibowli,040123456,17.4401,78.3489
AIG Hospital,Gachibowli,040987654,17.4435,78.3570
Care Hospital,Madhapur,040567890,17.4483,78.3915
Yashoda Hospital,Secunderabad,040111222,17.4399,78.4983
KIMS Hospital,Ameerpet,040333444,17.4374,78.4482
